{
"type": "FeatureCollection",
"name": "Public_Art",
"crs": { "type": "name", "properties": { "name": "urn:ogc:def:crs:OGC:1.3:CRS84" } },
"features": [
{ "type": "Feature", "properties": { "ID": 1, "ID1": 38, "PLACE_NAME": "JT Patin Building", "FULL_ADDRESS": "1102 EDDIE ROBINSON SR DR", "CITY": "BATON ROUGE", "STATE": "LOUISIANA", "ZIP": 70802, "PHONE": null, "WEBSITE": null }, "geometry": { "type": "Point", "coordinates": [ -91.175606469891747, 30.438272125992562 ] } },
{ "type": "Feature", "properties": { "ID": 2, "ID1": 128, "PLACE_NAME": "Brookstown High School Aquaponics #96", "FULL_ADDRESS": "4375 E BROOKSTOWN DR", "CITY": "BATON ROUGE", "STATE": "LOUISIANA", "ZIP": 70805, "PHONE": null, "WEBSITE": "http://www.thewallsproject.org/" }, "geometry": { "type": "Point", "coordinates": [ -91.129199239513639, 30.490256192325973 ] } },
{ "type": "Feature", "properties": { "ID": 3, "ID1": 101, "PLACE_NAME": "Aquaponics & You #66", "FULL_ADDRESS": "4370 E BROOKSTOWN DR", "CITY": "BATON ROUGE", "STATE": "LOUISIANA", "ZIP": 70805, "PHONE": null, "WEBSITE": "http://www.thewallsproject.org/" }, "geometry": { "type": "Point", "coordinates": [ -91.127701928691422, 30.490594742873181 ] } },
{ "type": "Feature", "properties": { "ID": 4, "ID1": 134, "PLACE_NAME": "Brookstown High School Aquaponics #97", "FULL_ADDRESS": "4375 E BROOKSTOWN DR", "CITY": "BATON ROUGE", "STATE": "LOUISIANA", "ZIP": 70805, "PHONE": null, "WEBSITE": "http://www.thewallsproject.org/" }, "geometry": { "type": "Point", "coordinates": [ -91.129212954228322, 30.490426459035433 ] } },
{ "type": "Feature", "properties": { "ID": 5, "ID1": 185, "PLACE_NAME": "Elysian Apartments #127", "FULL_ADDRESS": "750 CANAL ST", "CITY": "BATON ROUGE", "STATE": "LOUISIANA", "ZIP": 70802, "PHONE": null, "WEBSITE": "http://www.thewallsproject.org/" }, "geometry": { "type": "Point", "coordinates": [ -91.179283045383684, 30.454588748440507 ] } },
{ "type": "Feature", "properties": { "ID": 6, "ID1": 15, "PLACE_NAME": "Baton Rouge Gallery", "FULL_ADDRESS": "1515 DALRYMPLE DR", "CITY": "BATON ROUGE", "STATE": "LOUISIANA", "ZIP": 70808, "PHONE": "225-383-1470", "WEBSITE": "http://batonrougegallery.org" }, "geometry": { "type": "Point", "coordinates": [ -91.166842533412876, 30.433518713139765 ] } },
{ "type": "Feature", "properties": { "ID": 7, "ID1": 72, "PLACE_NAME": "Love Our Community #37", "FULL_ADDRESS": "2829 CHOCTAW DR", "CITY": "BATON ROUGE", "STATE": "LOUISIANA", "ZIP": 70805, "PHONE": null, "WEBSITE": "http://www.thewallsproject.org/" }, "geometry": { "type": "Point", "coordinates": [ -91.160196053953968, 30.470215267898368 ] } },
{ "type": "Feature", "properties": { "ID": 8, "ID1": 5, "PLACE_NAME": "Parade #3", "FULL_ADDRESS": "717 CONVENTION ST", "CITY": "BATON ROUGE", "STATE": "LOUISIANA", "ZIP": 70801, "PHONE": null, "WEBSITE": "http://www.thewallsproject.org/" }, "geometry": { "type": "Point", "coordinates": [ -91.184016360093835, 30.449017898773565 ] } },
{ "type": "Feature", "properties": { "ID": 9, "ID1": 28, "PLACE_NAME": "Umbrella of Flowers #4", "FULL_ADDRESS": "200 N 4TH ST", "CITY": "BATON ROUGE", "STATE": "LOUISIANA", "ZIP": 70801, "PHONE": null, "WEBSITE": "http://www.thewallsproject.org/" }, "geometry": { "type": "Point", "coordinates": [ -91.187763846564351, 30.448687491954654 ] } },
{ "type": "Feature", "properties": { "ID": 10, "ID1": 43, "PLACE_NAME": "Louisiana State Library", "FULL_ADDRESS": "701 N 4TH ST", "CITY": "BATON ROUGE", "STATE": "LOUISIANA", "ZIP": 70802, "PHONE": null, "WEBSITE": null }, "geometry": { "type": "Point", "coordinates": [ -91.187467761444637, 30.453580592141691 ] } },
{ "type": "Feature", "properties": { "ID": 11, "ID1": 44, "PLACE_NAME": "Louisiana State Museum", "FULL_ADDRESS": "660 N 4TH ST", "CITY": "BATON ROUGE", "STATE": "LOUISIANA", "ZIP": 70802, "PHONE": null, "WEBSITE": null }, "geometry": { "type": "Point", "coordinates": [ -91.186986916833973, 30.453594938034239 ] } },
{ "type": "Feature", "properties": { "ID": 12, "ID1": 182, "PLACE_NAME": "#ONEROUGE - Drawing the Line #125", "FULL_ADDRESS": "1115 S 14TH ST", "CITY": "BATON ROUGE", "STATE": "LOUISIANA", "ZIP": 70802, "PHONE": null, "WEBSITE": "http://www.thewallsproject.org/" }, "geometry": { "type": "Point", "coordinates": [ -91.174309674279954, 30.437940276649531 ] } },
{ "type": "Feature", "properties": { "ID": 13, "ID1": 10, "PLACE_NAME": "Habitat Imports Building", "FULL_ADDRESS": "340 S 14TH ST", "CITY": "BATON ROUGE", "STATE": "LOUISIANA", "ZIP": 70802, "PHONE": "225-343-5227", "WEBSITE": null }, "geometry": { "type": "Point", "coordinates": [ -91.174970820779848, 30.444461904672693 ] } },
{ "type": "Feature", "properties": { "ID": 14, "ID1": 67, "PLACE_NAME": "MLK Day of Service: \"Murals on Main #1\" #31", "FULL_ADDRESS": "419 N 19TH ST", "CITY": "BATON ROUGE", "STATE": "LOUISIANA", "ZIP": 70802, "PHONE": null, "WEBSITE": "http://www.thewallsproject.org/" }, "geometry": { "type": "Point", "coordinates": [ -91.169654754170594, 30.451361387388445 ] } },
{ "type": "Feature", "properties": { "ID": 15, "ID1": 98, "PLACE_NAME": "#LoveBR Youth Summer Murals #63", "FULL_ADDRESS": "704 N 19TH ST", "CITY": "BATON ROUGE", "STATE": "LOUISIANA", "ZIP": 70802, "PHONE": null, "WEBSITE": "http://www.thewallsproject.org/" }, "geometry": { "type": "Point", "coordinates": [ -91.169239709817404, 30.454253010489932 ] } },
{ "type": "Feature", "properties": { "ID": 16, "ID1": 76, "PLACE_NAME": "Love Our Community", "FULL_ADDRESS": "2401 72ND AVE", "CITY": "BATON ROUGE", "STATE": "LOUISIANA", "ZIP": 70807, "PHONE": null, "WEBSITE": null }, "geometry": { "type": "Point", "coordinates": [ -91.16816558256636, 30.514680809217889 ] } },
{ "type": "Feature", "properties": { "ID": 17, "ID1": 114, "PLACE_NAME": "MLK Festival of Service 2018 #77", "FULL_ADDRESS": "1700-1900 72ND AVE", "CITY": "BATON ROUGE", "STATE": "LOUISIANA", "ZIP": 70807, "PHONE": null, "WEBSITE": "http://www.thewallsproject.org/" }, "geometry": { "type": "Point", "coordinates": [ -91.174933214670418, 30.514288317093524 ] } },
{ "type": "Feature", "properties": { "ID": 18, "ID1": 25, "PLACE_NAME": "Love Our Community #28", "FULL_ADDRESS": "1650 N ACADIAN THWY W", "CITY": "BATON ROUGE", "STATE": "LOUISIANA", "ZIP": 70802, "PHONE": null, "WEBSITE": "http://www.thewallsproject.org/" }, "geometry": { "type": "Point", "coordinates": [ -91.155951532830557, 30.462868550565954 ] } },
{ "type": "Feature", "properties": { "ID": 19, "ID1": 96, "PLACE_NAME": "#LoveBR Youth Summer Murals #61", "FULL_ADDRESS": "8271 AIRLINE HWY", "CITY": "BATON ROUGE", "STATE": "LOUISIANA", "ZIP": 70815, "PHONE": null, "WEBSITE": "http://www.thewallsproject.org/" }, "geometry": { "type": "Point", "coordinates": [ -91.101876920484116, 30.46197579100237 ] } },
{ "type": "Feature", "properties": { "ID": 20, "ID1": 97, "PLACE_NAME": "#LoveBR Youth Summer Murals #62", "FULL_ADDRESS": "1420 ALABAMA AVE", "CITY": "BAKER", "STATE": "LOUISIANA", "ZIP": 70714, "PHONE": null, "WEBSITE": "http://www.thewallsproject.org/" }, "geometry": { "type": "Point", "coordinates": [ -91.164991475621989, 30.590150729797578 ] } },
{ "type": "Feature", "properties": { "ID": 21, "ID1": 60, "PLACE_NAME": "BREC Blueberry Street Park #22", "FULL_ADDRESS": "1870 N ARDENWOOD DR", "CITY": "BATON ROUGE", "STATE": "LOUISIANA", "ZIP": 70806, "PHONE": null, "WEBSITE": "http://www.thewallsproject.org/" }, "geometry": { "type": "Point", "coordinates": [ -91.128572692962905, 30.466048282621987 ] } },
{ "type": "Feature", "properties": { "ID": 22, "ID1": 34, "PLACE_NAME": "Canyon of Color #15", "FULL_ADDRESS": "2129 GAYOSA ST", "CITY": "BATON ROUGE", "STATE": "LOUISIANA", "ZIP": 70802, "PHONE": null, "WEBSITE": "http://www.thewallsproject.org/" }, "geometry": { "type": "Point", "coordinates": [ -91.166670336348275, 30.454356046340081 ] } },
{ "type": "Feature", "properties": { "ID": 23, "ID1": 80, "PLACE_NAME": "One Team, One Dream #45", "FULL_ADDRESS": "4100 GERONIMO ST", "CITY": "BATON ROUGE", "STATE": "LOUISIANA", "ZIP": 70805, "PHONE": null, "WEBSITE": "http://www.thewallsproject.org/" }, "geometry": { "type": "Point", "coordinates": [ -91.161992536778229, 30.486972686081138 ] } },
{ "type": "Feature", "properties": { "ID": 24, "ID1": 22, "PLACE_NAME": null, "FULL_ADDRESS": "1414 FAIRCHILD ST", "CITY": "BATON ROUGE", "STATE": "LOUISIANA", "ZIP": 70807, "PHONE": null, "WEBSITE": null }, "geometry": { "type": "Point", "coordinates": [ -91.179289308490979, 30.522253147022514 ] } },
{ "type": "Feature", "properties": { "ID": 25, "ID1": 158, "PLACE_NAME": "BRSO Signage #98", "FULL_ADDRESS": "9625 FENWAY AVE", "CITY": "BATON ROUGE", "STATE": "LOUISIANA", "ZIP": 70809, "PHONE": null, "WEBSITE": "http://www.thewallsproject.org/" }, "geometry": { "type": "Point", "coordinates": [ -91.08107593139259, 30.42985263853047 ] } },
{ "type": "Feature", "properties": { "ID": 26, "ID1": 159, "PLACE_NAME": "Wall #100", "FULL_ADDRESS": "297 FIELD HOUSE DR", "CITY": "BATON ROUGE", "STATE": "LOUISIANA", "ZIP": 70803, "PHONE": null, "WEBSITE": "http://www.thewallsproject.org/" }, "geometry": { "type": "Point", "coordinates": [ -91.180921584282416, 30.411745741170595 ] } },
{ "type": "Feature", "properties": { "ID": 27, "ID1": 63, "PLACE_NAME": "Love Our Community #25", "FULL_ADDRESS": "5175 FLORIDA BLVD", "CITY": "BATON ROUGE", "STATE": "LOUISIANA", "ZIP": 70806, "PHONE": null, "WEBSITE": "http://www.thewallsproject.org/" }, "geometry": { "type": "Point", "coordinates": [ -91.136784449165887, 30.451533657216817 ] } },
{ "type": "Feature", "properties": { "ID": 28, "ID1": 59, "PLACE_NAME": "Mentorship Academy #21", "FULL_ADDRESS": "339 FLORIDA ST", "CITY": "BATON ROUGE", "STATE": "LOUISIANA", "ZIP": 70801, "PHONE": null, "WEBSITE": "http://www.thewallsproject.org/" }, "geometry": { "type": "Point", "coordinates": [ -91.187325278033796, 30.449505195641766 ] } },
{ "type": "Feature", "properties": { "ID": 29, "ID1": 6, "PLACE_NAME": "Metamorphosis #2", "FULL_ADDRESS": "329 FLORIDA ST", "CITY": "BATON ROUGE", "STATE": "LOUISIANA", "ZIP": 70801, "PHONE": null, "WEBSITE": "http://www.thewallsproject.org/" }, "geometry": { "type": "Point", "coordinates": [ -91.187666093687497, 30.449439482471249 ] } },
{ "type": "Feature", "properties": { "ID": 30, "ID1": 7, "PLACE_NAME": "Cinq Ombres #1", "FULL_ADDRESS": "340 FLORIDA ST", "CITY": "BATON ROUGE", "STATE": "LOUISIANA", "ZIP": 70801, "PHONE": null, "WEBSITE": "http://www.thewallsproject.org/" }, "geometry": { "type": "Point", "coordinates": [ -91.187549969886732, 30.449090085027812 ] } },
{ "type": "Feature", "properties": { "ID": 31, "ID1": 79, "PLACE_NAME": "Living Wall for Alton Sterling #44", "FULL_ADDRESS": "2112 N FOSTER DR", "CITY": "BATON ROUGE", "STATE": "LOUISIANA", "ZIP": 70806, "PHONE": null, "WEBSITE": "http://www.thewallsproject.org/" }, "geometry": { "type": "Point", "coordinates": [ -91.139525477378939, 30.467951344808942 ] } },
{ "type": "Feature", "properties": { "ID": 32, "ID1": 8, "PLACE_NAME": "BR Blues Harmonica #10", "FULL_ADDRESS": "103 FRANCE ST", "CITY": "BATON ROUGE", "STATE": "LOUISIANA", "ZIP": 70802, "PHONE": null, "WEBSITE": "http://www.thewallsproject.org/" }, "geometry": { "type": "Point", "coordinates": [ -91.18915815946167, 30.442867650481816 ] } },
{ "type": "Feature", "properties": { "ID": 33, "ID1": 31, "PLACE_NAME": "Gogh Book It Kid Paint Party #11", "FULL_ADDRESS": "7711 GOODWOOD BLVD", "CITY": "BATON ROUGE", "STATE": "LOUISIANA", "ZIP": 70806, "PHONE": null, "WEBSITE": "http://www.thewallsproject.org/" }, "geometry": { "type": "Point", "coordinates": [ -91.106767914303489, 30.443955702854574 ] } },
{ "type": "Feature", "properties": { "ID": 34, "ID1": 66, "PLACE_NAME": "Imagination is More Important than Knowledge #30", "FULL_ADDRESS": "1640 GOVERNMENT ST", "CITY": "BATON ROUGE", "STATE": "LOUISIANA", "ZIP": 70802, "PHONE": null, "WEBSITE": "http://www.thewallsproject.org/" }, "geometry": { "type": "Point", "coordinates": [ -91.171622489658446, 30.44353508082148 ] } },
{ "type": "Feature", "properties": { "ID": 35, "ID1": 83, "PLACE_NAME": "BR First Well Done Fuss Over a Fair Bus #48", "FULL_ADDRESS": "1779 GOVERNMENT ST", "CITY": "BATON ROUGE", "STATE": "LOUISIANA", "ZIP": 70802, "PHONE": null, "WEBSITE": "http://www.thewallsproject.org/" }, "geometry": { "type": "Point", "coordinates": [ -91.170370255439963, 30.444022979944542 ] } },
{ "type": "Feature", "properties": { "ID": 36, "ID1": 84, "PLACE_NAME": "Twine Logo #49a", "FULL_ADDRESS": "2921 GOVERNMENT ST", "CITY": "BATON ROUGE", "STATE": "LOUISIANA", "ZIP": 70806, "PHONE": null, "WEBSITE": "http://www.thewallsproject.org/" }, "geometry": { "type": "Point", "coordinates": [ -91.158044351374471, 30.444390396533016 ] } },
{ "type": "Feature", "properties": { "ID": 37, "ID1": 85, "PLACE_NAME": "Purusa Peacock #49b", "FULL_ADDRESS": "2931 GOVERNMENT ST", "CITY": "BATON ROUGE", "STATE": "LOUISIANA", "ZIP": 70806, "PHONE": null, "WEBSITE": "http://www.thewallsproject.org/" }, "geometry": { "type": "Point", "coordinates": [ -91.157910621067785, 30.44439967662451 ] } },
{ "type": "Feature", "properties": { "ID": 38, "ID1": 24, "PLACE_NAME": "Love Our Community Summer Youth Employment Program #27", "FULL_ADDRESS": "1120 GOVERNMENT ST", "CITY": "BATON ROUGE", "STATE": "LOUISIANA", "ZIP": 70802, "PHONE": null, "WEBSITE": "http://www.thewallsproject.org/" }, "geometry": { "type": "Point", "coordinates": [ -91.176746019759136, 30.443283773821854 ] } },
{ "type": "Feature", "properties": { "ID": 39, "ID1": 32, "PLACE_NAME": "Untitled I & II #13", "FULL_ADDRESS": "1655 GOVERNMENT ST", "CITY": "BATON ROUGE", "STATE": "LOUISIANA", "ZIP": 70802, "PHONE": null, "WEBSITE": "http://www.thewallsproject.org/" }, "geometry": { "type": "Point", "coordinates": [ -91.171704943182093, 30.443946584312009 ] } },
{ "type": "Feature", "properties": { "ID": 40, "ID1": 36, "PLACE_NAME": "Giraphic Prints Building Transformation #19", "FULL_ADDRESS": "4556 GOVERNMENT ST", "CITY": "BATON ROUGE", "STATE": "LOUISIANA", "ZIP": 70806, "PHONE": null, "WEBSITE": "http://www.thewallsproject.org/" }, "geometry": { "type": "Point", "coordinates": [ -91.142816452781815, 30.444317826701258 ] } },
{ "type": "Feature", "properties": { "ID": 41, "ID1": 2, "PLACE_NAME": "BR Blues #6", "FULL_ADDRESS": "3347 GOVERNMENT ST", "CITY": "BATON ROUGE", "STATE": "LOUISIANA", "ZIP": 70806, "PHONE": null, "WEBSITE": "http://www.thewallsproject.org/" }, "geometry": { "type": "Point", "coordinates": [ -91.155037088520473, 30.444484139382304 ] } },
{ "type": "Feature", "properties": { "ID": 42, "ID1": 58, "PLACE_NAME": "We Stand Together #12", "FULL_ADDRESS": "5131 GREENWELL SPRINGS RD", "CITY": "BATON ROUGE", "STATE": "LOUISIANA", "ZIP": 70806, "PHONE": null, "WEBSITE": "http://www.thewallsproject.org/" }, "geometry": { "type": "Point", "coordinates": [ -91.13809301338263, 30.463685080225947 ] } },
{ "type": "Feature", "properties": { "ID": 43, "ID1": 86, "PLACE_NAME": "MLK Day Festival of Service #50", "FULL_ADDRESS": "5100 GREENWELL SPRINGS RD", "CITY": "BATON ROUGE", "STATE": "LOUISIANA", "ZIP": 70806, "PHONE": null, "WEBSITE": "http://www.thewallsproject.org/" }, "geometry": { "type": "Point", "coordinates": [ -91.136110444446643, 30.463302944486568 ] } },
{ "type": "Feature", "properties": { "ID": 44, "ID1": 30, "PLACE_NAME": "Love Our Community #8", "FULL_ADDRESS": "5131 GREENWELL SPRINGS RD", "CITY": "BATON ROUGE", "STATE": "LOUISIANA", "ZIP": 70806, "PHONE": null, "WEBSITE": "http://www.thewallsproject.org/" }, "geometry": { "type": "Point", "coordinates": [ -91.137919901842579, 30.464011296489922 ] } },
{ "type": "Feature", "properties": { "ID": 45, "ID1": 61, "PLACE_NAME": "Keep Louisiana Beautiful Storm Drains #23", "FULL_ADDRESS": "3501 GROOM RD", "CITY": "BAKER", "STATE": "LOUISIANA", "ZIP": 70714, "PHONE": null, "WEBSITE": "http://www.thewallsproject.org/" }, "geometry": { "type": "Point", "coordinates": [ -91.163503570475257, 30.588256317957029 ] } },
{ "type": "Feature", "properties": { "ID": 46, "ID1": 64, "PLACE_NAME": "Love Our Community Summer Youth Employment Program #26", "FULL_ADDRESS": "1109 HIGHLAND RD", "CITY": "BATON ROUGE", "STATE": "LOUISIANA", "ZIP": 70802, "PHONE": null, "WEBSITE": "http://www.thewallsproject.org/" }, "geometry": { "type": "Point", "coordinates": [ -91.185899898833512, 30.437681513011167 ] } },
{ "type": "Feature", "properties": { "ID": 47, "ID1": 140, "PLACE_NAME": "Independence Park Art Signage #99", "FULL_ADDRESS": "7800 INDEPENDENCE BLVD", "CITY": "BATON ROUGE", "STATE": "LOUISIANA", "ZIP": 70806, "PHONE": null, "WEBSITE": "http://www.thewallsproject.org/" }, "geometry": { "type": "Point", "coordinates": [ -91.108754470014546, 30.445202272228777 ] } },
{ "type": "Feature", "properties": { "ID": 48, "ID1": 87, "PLACE_NAME": "MLK Day Festival of Service #51", "FULL_ADDRESS": "4771 GUS YOUNG AVE", "CITY": "BATON ROUGE", "STATE": "LOUISIANA", "ZIP": 70802, "PHONE": null, "WEBSITE": "http://www.thewallsproject.org/" }, "geometry": { "type": "Point", "coordinates": [ -91.142389627786798, 30.462460981686021 ] } },
{ "type": "Feature", "properties": { "ID": 49, "ID1": 88, "PLACE_NAME": "MLK Day Festival of Service #52", "FULL_ADDRESS": "4517 GUS YOUNG AVE", "CITY": "BATON ROUGE", "STATE": "LOUISIANA", "ZIP": 70802, "PHONE": null, "WEBSITE": "http://www.thewallsproject.org/" }, "geometry": { "type": "Point", "coordinates": [ -91.144289446254078, 30.462362042045427 ] } },
{ "type": "Feature", "properties": { "ID": 50, "ID1": 89, "PLACE_NAME": "MLK Day Festival of Service #53 & 54", "FULL_ADDRESS": "4475 GUS YOUNG AVE", "CITY": "BATON ROUGE", "STATE": "LOUISIANA", "ZIP": 70802, "PHONE": null, "WEBSITE": "http://www.thewallsproject.org/" }, "geometry": { "type": "Point", "coordinates": [ -91.144704306094511, 30.462362634297769 ] } },
{ "type": "Feature", "properties": { "ID": 51, "ID1": 90, "PLACE_NAME": "MLK Day Festival of Service #55", "FULL_ADDRESS": "4210 GUS YOUNG AVE", "CITY": "BATON ROUGE", "STATE": "LOUISIANA", "ZIP": 70802, "PHONE": null, "WEBSITE": "http://www.thewallsproject.org/" }, "geometry": { "type": "Point", "coordinates": [ -91.148046500865846, 30.461847038190143 ] } },
{ "type": "Feature", "properties": { "ID": 52, "ID1": 91, "PLACE_NAME": "MLK Day Festival of Service #56", "FULL_ADDRESS": "4242 GUS YOUNG AVE", "CITY": "BATON ROUGE", "STATE": "LOUISIANA", "ZIP": 70802, "PHONE": null, "WEBSITE": "http://www.thewallsproject.org/" }, "geometry": { "type": "Point", "coordinates": [ -91.147442801999929, 30.461851076812074 ] } },
{ "type": "Feature", "properties": { "ID": 53, "ID1": 92, "PLACE_NAME": "MLK Day Festival of Service #57", "FULL_ADDRESS": "4142 GUS YOUNG AVE", "CITY": "BATON ROUGE", "STATE": "LOUISIANA", "ZIP": 70802, "PHONE": null, "WEBSITE": "http://www.thewallsproject.org/" }, "geometry": { "type": "Point", "coordinates": [ -91.148365394562546, 30.461809812015364 ] } },
{ "type": "Feature", "properties": { "ID": 54, "ID1": 93, "PLACE_NAME": "MLK Day Festival of Service #58", "FULL_ADDRESS": "3941 GUS YOUNG AVE", "CITY": "BATON ROUGE", "STATE": "LOUISIANA", "ZIP": 70802, "PHONE": null, "WEBSITE": "http://www.thewallsproject.org/" }, "geometry": { "type": "Point", "coordinates": [ -91.151052194216291, 30.462253444437529 ] } },
{ "type": "Feature", "properties": { "ID": 55, "ID1": 21, "PLACE_NAME": null, "FULL_ADDRESS": "4008 GUS YOUNG AVE", "CITY": "BATON ROUGE", "STATE": "LOUISIANA", "ZIP": 70802, "PHONE": null, "WEBSITE": null }, "geometry": { "type": "Point", "coordinates": [ -91.150179752240518, 30.461761746484203 ] } },
{ "type": "Feature", "properties": { "ID": 56, "ID1": 141, "PLACE_NAME": "Liberty Lagoon Art Signage #99", "FULL_ADDRESS": "111 LOBDELL AVE", "CITY": "BATON ROUGE", "STATE": "LOUISIANA", "ZIP": 70806, "PHONE": null, "WEBSITE": "http://www.thewallsproject.org/" }, "geometry": { "type": "Point", "coordinates": [ -91.111667951596246, 30.448758078992583 ] } },
{ "type": "Feature", "properties": { "ID": 57, "ID1": 65, "PLACE_NAME": "CACRC Landscape Installation #29", "FULL_ADDRESS": "1400 MAIN ST", "CITY": "BATON ROUGE", "STATE": "LOUISIANA", "ZIP": 70802, "PHONE": null, "WEBSITE": "http://www.thewallsproject.org/" }, "geometry": { "type": "Point", "coordinates": [ -91.174618325746025, 30.451711968501666 ] } },
{ "type": "Feature", "properties": { "ID": 58, "ID1": 68, "PLACE_NAME": "MLK Day of Service: \"Murals on Main #2\" #32", "FULL_ADDRESS": "1623 MAIN ST", "CITY": "BATON ROUGE", "STATE": "LOUISIANA", "ZIP": 70802, "PHONE": null, "WEBSITE": "http://www.thewallsproject.org/" }, "geometry": { "type": "Point", "coordinates": [ -91.172006187825971, 30.452132479892931 ] } },
{ "type": "Feature", "properties": { "ID": 59, "ID1": 69, "PLACE_NAME": "MLK Day of Service: \"Murals on Main #3\" #33", "FULL_ADDRESS": "1427 MAIN ST", "CITY": "BATON ROUGE", "STATE": "LOUISIANA", "ZIP": 70802, "PHONE": null, "WEBSITE": "http://www.thewallsproject.org/" }, "geometry": { "type": "Point", "coordinates": [ -91.175093362359434, 30.452131460027783 ] } },
{ "type": "Feature", "properties": { "ID": 60, "ID1": 70, "PLACE_NAME": "MLK Day of Service: \"Murals on Main #4\" #34", "FULL_ADDRESS": "1415 MAIN ST", "CITY": "BATON ROUGE", "STATE": "LOUISIANA", "ZIP": 70802, "PHONE": null, "WEBSITE": "http://www.thewallsproject.org/" }, "geometry": { "type": "Point", "coordinates": [ -91.175355565673314, 30.452127319011183 ] } },
{ "type": "Feature", "properties": { "ID": 61, "ID1": 71, "PLACE_NAME": "MLK Day of Service: \"Murals on Main #5\" #35", "FULL_ADDRESS": "1105 MAIN ST", "CITY": "BATON ROUGE", "STATE": "LOUISIANA", "ZIP": 70802, "PHONE": null, "WEBSITE": "http://www.thewallsproject.org/" }, "geometry": { "type": "Point", "coordinates": [ -91.178495629984624, 30.451892969450817 ] } },
{ "type": "Feature", "properties": { "ID": 62, "ID1": 81, "PLACE_NAME": "100 Percent #46", "FULL_ADDRESS": "7950 MAPLEWOOD DR", "CITY": "BATON ROUGE", "STATE": "LOUISIANA", "ZIP": 70812, "PHONE": null, "WEBSITE": "http://www.thewallsproject.org/" }, "geometry": { "type": "Point", "coordinates": [ -91.110991777235611, 30.507606102446044 ] } },
{ "type": "Feature", "properties": { "ID": 63, "ID1": 27, "PLACE_NAME": null, "FULL_ADDRESS": "1202 MAXIMILIAN ST", "CITY": "BATON ROUGE", "STATE": "LOUISIANA", "ZIP": 70802, "PHONE": null, "WEBSITE": null }, "geometry": { "type": "Point", "coordinates": [ -91.181257143187537, 30.437105471304484 ] } },
{ "type": "Feature", "properties": { "ID": 64, "ID1": 23, "PLACE_NAME": null, "FULL_ADDRESS": "1336 MYRTLE ST", "CITY": "BATON ROUGE", "STATE": "LOUISIANA", "ZIP": 70802, "PHONE": null, "WEBSITE": null }, "geometry": { "type": "Point", "coordinates": [ -91.174738569159288, 30.438232596171002 ] } },
{ "type": "Feature", "properties": { "ID": 65, "ID1": 39, "PLACE_NAME": "Lincoln Theater", "FULL_ADDRESS": "1305 MYRTLE ST", "CITY": "BATON ROUGE", "STATE": "LOUISIANA", "ZIP": 70802, "PHONE": null, "WEBSITE": null }, "geometry": { "type": "Point", "coordinates": [ -91.175386135965198, 30.438519394189822 ] } },
{ "type": "Feature", "properties": { "ID": 66, "ID1": 74, "PLACE_NAME": "Love Our Community #39", "FULL_ADDRESS": "2800 NAIRN DR", "CITY": "BATON ROUGE", "STATE": "LOUISIANA", "ZIP": 70808, "PHONE": null, "WEBSITE": "http://www.thewallsproject.org/" }, "geometry": { "type": "Point", "coordinates": [ -91.146081051470873, 30.422752931005249 ] } },
{ "type": "Feature", "properties": { "ID": 67, "ID1": 184, "PLACE_NAME": "BR General Hospital #126", "FULL_ADDRESS": "3401 NORTH BLVD", "CITY": "BATON ROUGE", "STATE": "LOUISIANA", "ZIP": 70806, "PHONE": null, "WEBSITE": "http://www.thewallsproject.org/" }, "geometry": { "type": "Point", "coordinates": [ -91.154276417421059, 30.448518209729631 ] } },
{ "type": "Feature", "properties": { "ID": 68, "ID1": 13, "PLACE_NAME": "Head of St John the Baptist", "FULL_ADDRESS": "222 NORTH BLVD", "CITY": "BATON ROUGE", "STATE": "LOUISIANA", "ZIP": 70802, "PHONE": null, "WEBSITE": null }, "geometry": { "type": "Point", "coordinates": [ -91.188260718574938, 30.446656394528322 ] } },
{ "type": "Feature", "properties": { "ID": 69, "ID1": 14, "PLACE_NAME": "Oliver Pollock", "FULL_ADDRESS": "222 NORTH BLVD", "CITY": "BATON ROUGE", "STATE": "LOUISIANA", "ZIP": 70802, "PHONE": null, "WEBSITE": null }, "geometry": { "type": "Point", "coordinates": [ -91.188536433323279, 30.446608154891599 ] } },
{ "type": "Feature", "properties": { "ID": 70, "ID1": 46, "PLACE_NAME": "North Blvd Town Square", "FULL_ADDRESS": "300 NORTH BLVD", "CITY": "BATON ROUGE", "STATE": "LOUISIANA", "ZIP": 70802, "PHONE": null, "WEBSITE": null }, "geometry": { "type": "Point", "coordinates": [ -91.187228398157572, 30.447034295575495 ] } },
{ "type": "Feature", "properties": { "ID": 71, "ID1": 33, "PLACE_NAME": "Floating Swamp #14", "FULL_ADDRESS": "10503 N OAK HILLS PKWY", "CITY": "BATON ROUGE", "STATE": "LOUISIANA", "ZIP": 70810, "PHONE": null, "WEBSITE": "http://www.thewallsproject.org/" }, "geometry": { "type": "Point", "coordinates": [ -91.104349596922049, 30.370062375541753 ] } },
{ "type": "Feature", "properties": { "ID": 72, "ID1": 183, "PLACE_NAME": "Memphis Mac #124", "FULL_ADDRESS": "2785 LARKSPUR AVE", "CITY": "BATON ROUGE", "STATE": "LOUISIANA", "ZIP": 70805, "PHONE": null, "WEBSITE": "http://www.thewallsproject.org/" }, "geometry": { "type": "Point", "coordinates": [ -91.180226684800402, 30.472638105594616 ] } },
{ "type": "Feature", "properties": { "ID": 73, "ID1": 180, "PLACE_NAME": "Planting Seeds for Economic Equality #122", "FULL_ADDRESS": "304 LAUREL ST", "CITY": "BATON ROUGE", "STATE": "LOUISIANA", "ZIP": 70801, "PHONE": null, "WEBSITE": "http://www.thewallsproject.org/" }, "geometry": { "type": "Point", "coordinates": [ -91.187802885920064, 30.450170309387527 ] } },
{ "type": "Feature", "properties": { "ID": 74, "ID1": 177, "PLACE_NAME": "Tribute to Sadie Roberts-Joseph #119", "FULL_ADDRESS": "2065 PLANK RD", "CITY": "BATON ROUGE", "STATE": "LOUISIANA", "ZIP": 70802, "PHONE": null, "WEBSITE": "http://www.thewallsproject.org/" }, "geometry": { "type": "Point", "coordinates": [ -91.164991820458397, 30.466543102074947 ] } },
{ "type": "Feature", "properties": { "ID": 75, "ID1": 178, "PLACE_NAME": "ReactivateBR #115", "FULL_ADDRESS": "2065 PLANK RD", "CITY": "BATON ROUGE", "STATE": "LOUISIANA", "ZIP": 70802, "PHONE": null, "WEBSITE": "http://www.thewallsproject.org/" }, "geometry": { "type": "Point", "coordinates": [ -91.165003175087563, 30.466435279857127 ] } },
{ "type": "Feature", "properties": { "ID": 76, "ID1": 181, "PLACE_NAME": "Love Thy Neighbor #123", "FULL_ADDRESS": "2655 PLANK RD", "CITY": "BATON ROUGE", "STATE": "LOUISIANA", "ZIP": 70805, "PHONE": null, "WEBSITE": "http://www.thewallsproject.org/" }, "geometry": { "type": "Point", "coordinates": [ -91.163149157457099, 30.471912569009859 ] } },
{ "type": "Feature", "properties": { "ID": 77, "ID1": 176, "PLACE_NAME": "Welcome to OSBR #118", "FULL_ADDRESS": "1100 PERKINS RD", "CITY": "BATON ROUGE", "STATE": "LOUISIANA", "ZIP": 70802, "PHONE": null, "WEBSITE": "http://www.thewallsproject.org/" }, "geometry": { "type": "Point", "coordinates": [ -91.170075223618298, 30.438431287018847 ] } },
{ "type": "Feature", "properties": { "ID": 78, "ID1": 9, "PLACE_NAME": "Garden District Animal Hospital", "FULL_ADDRESS": "1302 PERKINS RD", "CITY": "BATON ROUGE", "STATE": "LOUISIANA", "ZIP": 70806, "PHONE": "225-381-9661", "WEBSITE": "http://gardendistrictanimalhospital.com" }, "geometry": { "type": "Point", "coordinates": [ -91.167898943422841, 30.436481328659124 ] } },
{ "type": "Feature", "properties": { "ID": 79, "ID1": 62, "PLACE_NAME": "Love Our Community", "FULL_ADDRESS": "8421 SCENIC HWY", "CITY": "BATON ROUGE", "STATE": "LOUISIANA", "ZIP": 70807, "PHONE": null, "WEBSITE": null }, "geometry": { "type": "Point", "coordinates": [ -91.181548733818175, 30.523984757431386 ] } },
{ "type": "Feature", "properties": { "ID": 80, "ID1": 73, "PLACE_NAME": "Love Our Community #38", "FULL_ADDRESS": "8212 SCENIC HWY", "CITY": "BATON ROUGE", "STATE": "LOUISIANA", "ZIP": 70807, "PHONE": null, "WEBSITE": "http://www.thewallsproject.org/" }, "geometry": { "type": "Point", "coordinates": [ -91.179965050793697, 30.522428695733353 ] } },
{ "type": "Feature", "properties": { "ID": 81, "ID1": 78, "PLACE_NAME": "Love Our Community #24", "FULL_ADDRESS": "8449 SCENIC HWY", "CITY": "BATON ROUGE", "STATE": "LOUISIANA", "ZIP": 70807, "PHONE": null, "WEBSITE": "http://www.thewallsproject.org/" }, "geometry": { "type": "Point", "coordinates": [ -91.181494952163035, 30.524174956987014 ] } },
{ "type": "Feature", "properties": { "ID": 82, "ID1": 103, "PLACE_NAME": "MLK Festival of Service 2018 #67", "FULL_ADDRESS": "6505 SCENIC HWY", "CITY": "BATON ROUGE", "STATE": "LOUISIANA", "ZIP": 70807, "PHONE": null, "WEBSITE": "http://www.thewallsproject.org/" }, "geometry": { "type": "Point", "coordinates": [ -91.172736620441569, 30.509248001582176 ] } },
{ "type": "Feature", "properties": { "ID": 83, "ID1": 104, "PLACE_NAME": "MLK Festival of Service 2018 #68", "FULL_ADDRESS": "6569 SCENIC HWY", "CITY": "BATON ROUGE", "STATE": "LOUISIANA", "ZIP": 70807, "PHONE": null, "WEBSITE": "http://www.thewallsproject.org/" }, "geometry": { "type": "Point", "coordinates": [ -91.172945060235648, 30.509668331345463 ] } },
{ "type": "Feature", "properties": { "ID": 84, "ID1": 105, "PLACE_NAME": "MLK Festival of Service 2018 #70", "FULL_ADDRESS": "6700 SCENIC HWY", "CITY": "BATON ROUGE", "STATE": "LOUISIANA", "ZIP": 70807, "PHONE": null, "WEBSITE": "http://www.thewallsproject.org/" }, "geometry": { "type": "Point", "coordinates": [ -91.172909594793538, 30.510909203124616 ] } },
{ "type": "Feature", "properties": { "ID": 85, "ID1": 131, "PLACE_NAME": "MLK Festival of Service #69", "FULL_ADDRESS": "6933 SCENIC HWY", "CITY": "BATON ROUGE", "STATE": "LOUISIANA", "ZIP": 70807, "PHONE": null, "WEBSITE": "http://www.thewallsproject.org/" }, "geometry": { "type": "Point", "coordinates": [ -91.174272734898224, 30.511609877978874 ] } },
{ "type": "Feature", "properties": { "ID": 86, "ID1": 133, "PLACE_NAME": "Love Our Community #43", "FULL_ADDRESS": "8484 SCENIC HWY", "CITY": "BATON ROUGE", "STATE": "LOUISIANA", "ZIP": 70807, "PHONE": null, "WEBSITE": "http://www.thewallsproject.org/" }, "geometry": { "type": "Point", "coordinates": [ -91.180904469590033, 30.524011233955985 ] } },
{ "type": "Feature", "properties": { "ID": 87, "ID1": 106, "PLACE_NAME": "MLK Festival of Service 2018 #71", "FULL_ADDRESS": "6800 SCENIC HWY", "CITY": "BATON ROUGE", "STATE": "LOUISIANA", "ZIP": 70807, "PHONE": null, "WEBSITE": "http://www.thewallsproject.org/" }, "geometry": { "type": "Point", "coordinates": [ -91.173237383055465, 30.511672496446437 ] } },
{ "type": "Feature", "properties": { "ID": 88, "ID1": 107, "PLACE_NAME": "MLK Festival of Service 2018 #72", "FULL_ADDRESS": "6800 SCENIC HWY", "CITY": "BATON ROUGE", "STATE": "LOUISIANA", "ZIP": 70807, "PHONE": null, "WEBSITE": "http://www.thewallsproject.org/" }, "geometry": { "type": "Point", "coordinates": [ -91.173476115487105, 30.511659568917228 ] } },
{ "type": "Feature", "properties": { "ID": 89, "ID1": 108, "PLACE_NAME": "MLK Festival of Service 2018 #73", "FULL_ADDRESS": "6868 SCENIC HWY", "CITY": "BATON ROUGE", "STATE": "LOUISIANA", "ZIP": 70807, "PHONE": null, "WEBSITE": "http://www.thewallsproject.org/" }, "geometry": { "type": "Point", "coordinates": [ -91.173783295887745, 30.512044946812981 ] } },
{ "type": "Feature", "properties": { "ID": 90, "ID1": 109, "PLACE_NAME": "MLK Festival of Service 2018 #74", "FULL_ADDRESS": "7016 SCENIC HWY", "CITY": "BATON ROUGE", "STATE": "LOUISIANA", "ZIP": 70807, "PHONE": null, "WEBSITE": "http://www.thewallsproject.org/" }, "geometry": { "type": "Point", "coordinates": [ -91.174314243462618, 30.513003113456627 ] } },
{ "type": "Feature", "properties": { "ID": 91, "ID1": 110, "PLACE_NAME": "MLK Festival of Service 2018 #75", "FULL_ADDRESS": "7067 SCENIC HWY", "CITY": "BATON ROUGE", "STATE": "LOUISIANA", "ZIP": 70807, "PHONE": null, "WEBSITE": "http://www.thewallsproject.org/" }, "geometry": { "type": "Point", "coordinates": [ -91.175103169845045, 30.513171562834376 ] } },
{ "type": "Feature", "properties": { "ID": 92, "ID1": 112, "PLACE_NAME": "MLK Festival of Service 2018 #78", "FULL_ADDRESS": "7254 SCENIC HWY", "CITY": "BATON ROUGE", "STATE": "LOUISIANA", "ZIP": 70807, "PHONE": null, "WEBSITE": "http://www.thewallsproject.org/" }, "geometry": { "type": "Point", "coordinates": [ -91.175149628196806, 30.514513798040856 ] } },
{ "type": "Feature", "properties": { "ID": 93, "ID1": 113, "PLACE_NAME": "MLK Festival of Service 2018 #79", "FULL_ADDRESS": "7256 SCENIC HWY", "CITY": "BATON ROUGE", "STATE": "LOUISIANA", "ZIP": 70807, "PHONE": null, "WEBSITE": "http://www.thewallsproject.org/" }, "geometry": { "type": "Point", "coordinates": [ -91.175293407971878, 30.514676874821369 ] } },
{ "type": "Feature", "properties": { "ID": 94, "ID1": 115, "PLACE_NAME": "MLK Festival of Service 2018 #80", "FULL_ADDRESS": "7350 SCENIC HWY", "CITY": "BATON ROUGE", "STATE": "LOUISIANA", "ZIP": 70807, "PHONE": null, "WEBSITE": "http://www.thewallsproject.org/" }, "geometry": { "type": "Point", "coordinates": [ -91.175639166220009, 30.51525393332064 ] } },
{ "type": "Feature", "properties": { "ID": 95, "ID1": 116, "PLACE_NAME": "MLK Festival of Service 2018 #82", "FULL_ADDRESS": "7515 SCENIC HWY", "CITY": "BATON ROUGE", "STATE": "LOUISIANA", "ZIP": 70807, "PHONE": null, "WEBSITE": "http://www.thewallsproject.org/" }, "geometry": { "type": "Point", "coordinates": [ -91.17699830456705, 30.516301485159435 ] } },
{ "type": "Feature", "properties": { "ID": 96, "ID1": 117, "PLACE_NAME": "MLK Festival of Service 2018 #83", "FULL_ADDRESS": "7554 SCENIC HWY", "CITY": "BATON ROUGE", "STATE": "LOUISIANA", "ZIP": 70807, "PHONE": null, "WEBSITE": "http://www.thewallsproject.org/" }, "geometry": { "type": "Point", "coordinates": [ -91.176706371808649, 30.517068171027208 ] } },
{ "type": "Feature", "properties": { "ID": 97, "ID1": 118, "PLACE_NAME": "MLK Festival of Service 2018 #84", "FULL_ADDRESS": "7890 SCENIC HWY", "CITY": "BATON ROUGE", "STATE": "LOUISIANA", "ZIP": 70807, "PHONE": null, "WEBSITE": "http://www.thewallsproject.org/" }, "geometry": { "type": "Point", "coordinates": [ -91.177967884700792, 30.519201768829539 ] } },
{ "type": "Feature", "properties": { "ID": 98, "ID1": 119, "PLACE_NAME": "MLK Festival of Service 2018 #89", "FULL_ADDRESS": "7990 SCENIC HWY", "CITY": "BATON ROUGE", "STATE": "LOUISIANA", "ZIP": 70807, "PHONE": null, "WEBSITE": "http://www.thewallsproject.org/" }, "geometry": { "type": "Point", "coordinates": [ -91.178161227793694, 30.520012844413834 ] } },
{ "type": "Feature", "properties": { "ID": 99, "ID1": 120, "PLACE_NAME": "MLK Festival of Service 2018 #88", "FULL_ADDRESS": "7980 SCENIC HWY", "CITY": "BATON ROUGE", "STATE": "LOUISIANA", "ZIP": 70807, "PHONE": null, "WEBSITE": "http://www.thewallsproject.org/" }, "geometry": { "type": "Point", "coordinates": [ -91.178318964101834, 30.519788839489671 ] } },
{ "type": "Feature", "properties": { "ID": 100, "ID1": 121, "PLACE_NAME": "MLK Festival of Service 2018 #86", "FULL_ADDRESS": "8132 SCENIC HWY", "CITY": "BATON ROUGE", "STATE": "LOUISIANA", "ZIP": 70807, "PHONE": null, "WEBSITE": "http://www.thewallsproject.org/" }, "geometry": { "type": "Point", "coordinates": [ -91.179277705834252, 30.521651640608798 ] } },
{ "type": "Feature", "properties": { "ID": 101, "ID1": 122, "PLACE_NAME": "MLK Festival of Service 2018 #87", "FULL_ADDRESS": "8152 SCENIC HWY", "CITY": "BATON ROUGE", "STATE": "LOUISIANA", "ZIP": 70807, "PHONE": null, "WEBSITE": "http://www.thewallsproject.org/" }, "geometry": { "type": "Point", "coordinates": [ -91.179687092335698, 30.521805604523713 ] } },
{ "type": "Feature", "properties": { "ID": 102, "ID1": 123, "PLACE_NAME": "MLK Festival of Service 2018 #85", "FULL_ADDRESS": "8165 SCENIC HWY", "CITY": "BATON ROUGE", "STATE": "LOUISIANA", "ZIP": 70807, "PHONE": null, "WEBSITE": "http://www.thewallsproject.org/" }, "geometry": { "type": "Point", "coordinates": [ -91.180092846459331, 30.521531486348369 ] } },
{ "type": "Feature", "properties": { "ID": 103, "ID1": 124, "PLACE_NAME": "MLK Festival of Service 2018 #90", "FULL_ADDRESS": "8421 SCENIC HWY", "CITY": "BATON ROUGE", "STATE": "LOUISIANA", "ZIP": 70807, "PHONE": null, "WEBSITE": "http://www.thewallsproject.org/" }, "geometry": { "type": "Point", "coordinates": [ -91.181508032474937, 30.524087521046152 ] } },
{ "type": "Feature", "properties": { "ID": 104, "ID1": 125, "PLACE_NAME": "MLK Festival of Service 2018 #76", "FULL_ADDRESS": "7202 SCENIC HWY", "CITY": "BATON ROUGE", "STATE": "LOUISIANA", "ZIP": 70807, "PHONE": null, "WEBSITE": "http://www.thewallsproject.org/" }, "geometry": { "type": "Point", "coordinates": [ -91.175222126232285, 30.51436373660129 ] } },
{ "type": "Feature", "properties": { "ID": 105, "ID1": 126, "PLACE_NAME": "Southern Grind Cafe #94", "FULL_ADDRESS": "8418 SCOTLAND AVE", "CITY": "BATON ROUGE", "STATE": "LOUISIANA", "ZIP": 70807, "PHONE": null, "WEBSITE": "http://www.thewallsproject.org/" }, "geometry": { "type": "Point", "coordinates": [ -91.180227722648624, 30.523968846329957 ] } },
{ "type": "Feature", "properties": { "ID": 106, "ID1": 94, "PLACE_NAME": "Leaving the Leaf on STEM #59", "FULL_ADDRESS": "9870 SCOTLAND AVE", "CITY": "BATON ROUGE", "STATE": "LOUISIANA", "ZIP": 70807, "PHONE": null, "WEBSITE": "http://www.thewallsproject.org/" }, "geometry": { "type": "Point", "coordinates": [ -91.177452726845971, 30.533078973083583 ] } },
{ "type": "Feature", "properties": { "ID": 107, "ID1": 100, "PLACE_NAME": "#LoveBR Youth Summer Murals #65", "FULL_ADDRESS": "3140 N SHERWOOD FOREST DR", "CITY": "BATON ROUGE", "STATE": "LOUISIANA", "ZIP": 70814, "PHONE": null, "WEBSITE": "http://www.thewallsproject.org/" }, "geometry": { "type": "Point", "coordinates": [ -91.057298434764022, 30.478832202855063 ] } },
{ "type": "Feature", "properties": { "ID": 108, "ID1": 26, "PLACE_NAME": "#ONEROUGE - Transportation #130", "FULL_ADDRESS": "127 VAN BUREN ST", "CITY": "BATON ROUGE", "STATE": "LOUISIANA", "ZIP": 70802, "PHONE": null, "WEBSITE": "http://www.thewallsproject.org/" }, "geometry": { "type": "Point", "coordinates": [ -91.182348712187022, 30.429935846428435 ] } },
{ "type": "Feature", "properties": { "ID": 109, "ID1": 77, "PLACE_NAME": "Love Our Community #42", "FULL_ADDRESS": "1258 ROSENWALD RD", "CITY": "BATON ROUGE", "STATE": "LOUISIANA", "ZIP": 70807, "PHONE": null, "WEBSITE": "http://www.thewallsproject.org/" }, "geometry": { "type": "Point", "coordinates": [ -91.18089521553209, 30.531319063893772 ] } },
{ "type": "Feature", "properties": { "ID": 110, "ID1": 127, "PLACE_NAME": "Istrouma High School Aquaponics #95", "FULL_ADDRESS": "3730 WINBOURNE AVE", "CITY": "BATON ROUGE", "STATE": "LOUISIANA", "ZIP": 70805, "PHONE": null, "WEBSITE": "http://www.thewallsproject.org/" }, "geometry": { "type": "Point", "coordinates": [ -91.151017625688581, 30.477412246058218 ] } },
{ "type": "Feature", "properties": { "ID": 111, "ID1": 82, "PLACE_NAME": "#10WordStoriesBR #47", "FULL_ADDRESS": "5509 WINBOURNE AVE", "CITY": "BATON ROUGE", "STATE": "LOUISIANA", "ZIP": 70805, "PHONE": null, "WEBSITE": "http://www.thewallsproject.org/" }, "geometry": { "type": "Point", "coordinates": [ -91.135905182312896, 30.47999514979745 ] } },
{ "type": "Feature", "properties": { "ID": 112, "ID1": 160, "PLACE_NAME": "MLK Fest 2019 #101", "FULL_ADDRESS": "3730 WINBOURNE AVE", "CITY": "BATON ROUGE", "STATE": "LOUISIANA", "ZIP": 70805, "PHONE": null, "WEBSITE": "http://www.thewallsproject.org/" }, "geometry": { "type": "Point", "coordinates": [ -91.149572090578729, 30.478453693748893 ] } },
{ "type": "Feature", "properties": { "ID": 113, "ID1": 161, "PLACE_NAME": "MLK Fest 2019 #102", "FULL_ADDRESS": "4133 WINBOURNE AVE", "CITY": "BATON ROUGE", "STATE": "LOUISIANA", "ZIP": 70805, "PHONE": null, "WEBSITE": "http://www.thewallsproject.org/" }, "geometry": { "type": "Point", "coordinates": [ -91.147830029982231, 30.478722358432204 ] } },
{ "type": "Feature", "properties": { "ID": 114, "ID1": 162, "PLACE_NAME": "MLK Fest 2019 #105", "FULL_ADDRESS": "4149 WINBOURNE AVE", "CITY": "BATON ROUGE", "STATE": "LOUISIANA", "ZIP": 70805, "PHONE": null, "WEBSITE": "http://www.thewallsproject.org/" }, "geometry": { "type": "Point", "coordinates": [ -91.147610153187571, 30.478867961769392 ] } },
{ "type": "Feature", "properties": { "ID": 115, "ID1": 163, "PLACE_NAME": "MLK Fest 2019 #106", "FULL_ADDRESS": "4208 WINBOURNE AVE", "CITY": "BATON ROUGE", "STATE": "LOUISIANA", "ZIP": 70805, "PHONE": null, "WEBSITE": "http://www.thewallsproject.org/" }, "geometry": { "type": "Point", "coordinates": [ -91.147448408996496, 30.478492532510586 ] } },
{ "type": "Feature", "properties": { "ID": 116, "ID1": 164, "PLACE_NAME": "MLK Fest 2019 #107", "FULL_ADDRESS": "4325 WINBOURNE AVE", "CITY": "BATON ROUGE", "STATE": "LOUISIANA", "ZIP": 70805, "PHONE": null, "WEBSITE": "http://www.thewallsproject.org/" }, "geometry": { "type": "Point", "coordinates": [ -91.146719683900898, 30.478877130342742 ] } },
{ "type": "Feature", "properties": { "ID": 117, "ID1": 165, "PLACE_NAME": "MLK Fest 2019 #108", "FULL_ADDRESS": "4365 WINBOURNE AVE, STE B", "CITY": "BATON ROUGE", "STATE": "LOUISIANA", "ZIP": 70805, "PHONE": null, "WEBSITE": "http://www.thewallsproject.org/" }, "geometry": { "type": "Point", "coordinates": [ -91.146214273335616, 30.478886839000989 ] } },
{ "type": "Feature", "properties": { "ID": 118, "ID1": 166, "PLACE_NAME": "MLK Fest 2019 #109", "FULL_ADDRESS": "4365 WINBOURNE AVE, STE B", "CITY": "BATON ROUGE", "STATE": "LOUISIANA", "ZIP": 70805, "PHONE": null, "WEBSITE": "http://www.thewallsproject.org/" }, "geometry": { "type": "Point", "coordinates": [ -91.146114798741095, 30.478993526952404 ] } },
{ "type": "Feature", "properties": { "ID": 119, "ID1": 167, "PLACE_NAME": "MLK Fest 2019 #110", "FULL_ADDRESS": "4500 WINBOURNE AVE", "CITY": "BATON ROUGE", "STATE": "LOUISIANA", "ZIP": 70805, "PHONE": null, "WEBSITE": "http://www.thewallsproject.org/" }, "geometry": { "type": "Point", "coordinates": [ -91.144936601504952, 30.47843947378167 ] } },
{ "type": "Feature", "properties": { "ID": 120, "ID1": 168, "PLACE_NAME": "MLK Fest 2019 #111", "FULL_ADDRESS": "4520 WINBOURNE AVE", "CITY": "BATON ROUGE", "STATE": "LOUISIANA", "ZIP": 70805, "PHONE": null, "WEBSITE": "http://www.thewallsproject.org/" }, "geometry": { "type": "Point", "coordinates": [ -91.144734819631466, 30.478559042696411 ] } },
{ "type": "Feature", "properties": { "ID": 121, "ID1": 169, "PLACE_NAME": "MLK Fest 2019 #112", "FULL_ADDRESS": "4660 WINBOURNE AVE", "CITY": "BATON ROUGE", "STATE": "LOUISIANA", "ZIP": 70805, "PHONE": null, "WEBSITE": "http://www.thewallsproject.org/" }, "geometry": { "type": "Point", "coordinates": [ -91.143546374108453, 30.478651143241912 ] } },
{ "type": "Feature", "properties": { "ID": 122, "ID1": 170, "PLACE_NAME": "MLK Fest 2019 #113", "FULL_ADDRESS": "4662 WINBOURNE AVE", "CITY": "BATON ROUGE", "STATE": "LOUISIANA", "ZIP": 70805, "PHONE": null, "WEBSITE": "http://www.thewallsproject.org/" }, "geometry": { "type": "Point", "coordinates": [ -91.143344790682093, 30.478666487706654 ] } },
{ "type": "Feature", "properties": { "ID": 123, "ID1": 171, "PLACE_NAME": "MLK Fest 2019 #99", "FULL_ADDRESS": "4836 WINBOURNE AVE", "CITY": "BATON ROUGE", "STATE": "LOUISIANA", "ZIP": 70805, "PHONE": null, "WEBSITE": "http://www.thewallsproject.org/" }, "geometry": { "type": "Point", "coordinates": [ -91.142222654645067, 30.478690926917412 ] } },
{ "type": "Feature", "properties": { "ID": 124, "ID1": 172, "PLACE_NAME": "MLK Fest 2019 #116", "FULL_ADDRESS": "4912 WINBOURNE AVE", "CITY": "BATON ROUGE", "STATE": "LOUISIANA", "ZIP": 70805, "PHONE": null, "WEBSITE": "http://www.thewallsproject.org/" }, "geometry": { "type": "Point", "coordinates": [ -91.141265919154577, 30.478744258350606 ] } },
{ "type": "Feature", "properties": { "ID": 125, "ID1": 173, "PLACE_NAME": "MLK Fest 2019 #114", "FULL_ADDRESS": "5004 WINBOURNE AVE", "CITY": "BATON ROUGE", "STATE": "LOUISIANA", "ZIP": 70805, "PHONE": null, "WEBSITE": "http://www.thewallsproject.org/" }, "geometry": { "type": "Point", "coordinates": [ -91.140514068227418, 30.478631125632184 ] } },
{ "type": "Feature", "properties": { "ID": 126, "ID1": 174, "PLACE_NAME": "MLK Fest 2019 #114-B", "FULL_ADDRESS": "5004 WINBOURNE AVE", "CITY": "BATON ROUGE", "STATE": "LOUISIANA", "ZIP": 70805, "PHONE": null, "WEBSITE": "http://www.thewallsproject.org/" }, "geometry": { "type": "Point", "coordinates": [ -91.140456703610553, 30.478737869810669 ] } },
{ "type": "Feature", "properties": { "ID": 127, "ID1": 175, "PLACE_NAME": "MLK Fest 2019 #115", "FULL_ADDRESS": "5346 WINBOURNE AVE", "CITY": "BATON ROUGE", "STATE": "LOUISIANA", "ZIP": 70805, "PHONE": null, "WEBSITE": "http://www.thewallsproject.org/" }, "geometry": { "type": "Point", "coordinates": [ -91.13674727024943, 30.478849660186764 ] } },
{ "type": "Feature", "properties": { "ID": 128, "ID1": 130, "PLACE_NAME": "BREC Howell Park #93", "FULL_ADDRESS": "5509 WINBOURNE AVE", "CITY": "BATON ROUGE", "STATE": "LOUISIANA", "ZIP": 70805, "PHONE": null, "WEBSITE": "http://www.thewallsproject.org/" }, "geometry": { "type": "Point", "coordinates": [ -91.135981268314907, 30.480414850809524 ] } },
{ "type": "Feature", "properties": { "ID": 129, "ID1": 99, "PLACE_NAME": "#LoveBR Youth Summer Murals #64", "FULL_ADDRESS": "1091 SWAN AVE", "CITY": "BATON ROUGE", "STATE": "LOUISIANA", "ZIP": 70807, "PHONE": null, "WEBSITE": "http://www.thewallsproject.org/" }, "geometry": { "type": "Point", "coordinates": [ -91.182223887669778, 30.523787428904448 ] } },
{ "type": "Feature", "properties": { "ID": 130, "ID1": 102, "PLACE_NAME": "MLK Festival of Service 2018 #92", "FULL_ADDRESS": "1022 SWAN AVE", "CITY": "BATON ROUGE", "STATE": "LOUISIANA", "ZIP": 70807, "PHONE": null, "WEBSITE": "http://www.thewallsproject.org/" }, "geometry": { "type": "Point", "coordinates": [ -91.183200235142948, 30.523538019386383 ] } },
{ "type": "Feature", "properties": { "ID": 131, "ID1": 132, "PLACE_NAME": "MLK Festival of Service #91", "FULL_ADDRESS": "1332 SWAN AVE", "CITY": "BATON ROUGE", "STATE": "LOUISIANA", "ZIP": 70807, "PHONE": null, "WEBSITE": "http://www.thewallsproject.org/" }, "geometry": { "type": "Point", "coordinates": [ -91.179904570896596, 30.523628383479455 ] } },
{ "type": "Feature", "properties": { "ID": 132, "ID1": 1, "PLACE_NAME": "Birds of University Lakes #36", "FULL_ADDRESS": "344 3RD ST", "CITY": "BATON ROUGE", "STATE": "LOUISIANA", "ZIP": 70801, "PHONE": null, "WEBSITE": "http://www.thewallsproject.org/" }, "geometry": { "type": "Point", "coordinates": [ -91.187801890866638, 30.450077039704308 ] } },
{ "type": "Feature", "properties": { "ID": 133, "ID1": 75, "PLACE_NAME": "Love Our Community", "FULL_ADDRESS": "174 SOUTH BLVD", "CITY": "BATON ROUGE", "STATE": "LOUISIANA", "ZIP": 70802, "PHONE": null, "WEBSITE": null }, "geometry": { "type": "Point", "coordinates": [ -91.188936201167152, 30.4393981133253 ] } },
{ "type": "Feature", "properties": { "ID": 134, "ID1": 37, "PLACE_NAME": "Nicholson Drive Interstate Pillars #20", "FULL_ADDRESS": "900-1000 SAINT FERDINAND ST", "CITY": "BATON ROUGE", "STATE": "LOUISIANA", "ZIP": 70802, "PHONE": null, "WEBSITE": "http://www.thewallsproject.org/" }, "geometry": { "type": "Point", "coordinates": [ -91.186698059239049, 30.439015296136585 ] } },
{ "type": "Feature", "properties": { "ID": 135, "ID1": 12, "PLACE_NAME": "Columbus Place", "FULL_ADDRESS": "302 S RIVER RD", "CITY": "BATON ROUGE", "STATE": "LOUISIANA", "ZIP": 70802, "PHONE": null, "WEBSITE": null }, "geometry": { "type": "Point", "coordinates": [ -91.189890351720322, 30.443264642097155 ] } },
{ "type": "Feature", "properties": { "ID": 136, "ID1": 129, "PLACE_NAME": "Pump Station #40", "FULL_ADDRESS": "1184 S RIVER RD", "CITY": "BATON ROUGE", "STATE": "LOUISIANA", "ZIP": 70802, "PHONE": null, "WEBSITE": "http://www.thewallsproject.org/" }, "geometry": { "type": "Point", "coordinates": [ -91.190277041923068, 30.436721983493612 ] } },
{ "type": "Feature", "properties": { "ID": 137, "ID1": 40, "PLACE_NAME": "Riverfront Plaza Four Panel Mural", "FULL_ADDRESS": "100 S RIVER RD, STE A", "CITY": "BATON ROUGE", "STATE": "LOUISIANA", "ZIP": 70802, "PHONE": null, "WEBSITE": null }, "geometry": { "type": "Point", "coordinates": [ -91.190439936538027, 30.446297483353568 ] } },
{ "type": "Feature", "properties": { "ID": 138, "ID1": 41, "PLACE_NAME": "River Center", "FULL_ADDRESS": "275 S RIVER RD", "CITY": "BATON ROUGE", "STATE": "LOUISIANA", "ZIP": 70802, "PHONE": null, "WEBSITE": null }, "geometry": { "type": "Point", "coordinates": [ -91.190044936210313, 30.445492483209563 ] } },
{ "type": "Feature", "properties": { "ID": 139, "ID1": 179, "PLACE_NAME": "River Road Waves #121", "FULL_ADDRESS": "301 N RIVER RD", "CITY": "BATON ROUGE", "STATE": "LOUISIANA", "ZIP": 70802, "PHONE": null, "WEBSITE": "http://www.thewallsproject.org/" }, "geometry": { "type": "Point", "coordinates": [ -91.190604722454779, 30.450806184115596 ] } },
{ "type": "Feature", "properties": { "ID": 140, "ID1": 95, "PLACE_NAME": "Woman's Hospital NICU Rooftop #60", "FULL_ADDRESS": "100 WOMAN'S WAY", "CITY": "BATON ROUGE", "STATE": "LOUISIANA", "ZIP": 70817, "PHONE": null, "WEBSITE": "http://www.thewallsproject.org/" }, "geometry": { "type": "Point", "coordinates": [ -91.038561382828021, 30.385619229544577 ] } },
{ "type": "Feature", "properties": { "ID": 141, "ID1": 11, "PLACE_NAME": "Huey P. Long Statue", "FULL_ADDRESS": "900 N 3RD ST", "CITY": "BATON ROUGE", "STATE": "LOUISIANA", "ZIP": 70802, "PHONE": "225-342-7317", "WEBSITE": "http://crt.state.la.us/tourism/capitol" }, "geometry": { "type": "Point", "coordinates": [ -91.18730804321342, 30.455524945257828 ] } },
{ "type": "Feature", "properties": { "ID": 142, "ID1": 42, "PLACE_NAME": "LaSalle Building", "FULL_ADDRESS": "617 N 3RD ST", "CITY": "BATON ROUGE", "STATE": "LOUISIANA", "ZIP": 70802, "PHONE": null, "WEBSITE": null }, "geometry": { "type": "Point", "coordinates": [ -91.188579936938851, 30.452916484926011 ] } },
{ "type": "Feature", "properties": { "ID": 143, "ID1": 45, "PLACE_NAME": "AZ Young Plaza", "FULL_ADDRESS": "755 N 3RD ST", "CITY": "BATON ROUGE", "STATE": "LOUISIANA", "ZIP": 70802, "PHONE": null, "WEBSITE": null }, "geometry": { "type": "Point", "coordinates": [ -91.188943731580792, 30.454162426928566 ] } },
{ "type": "Feature", "properties": { "ID": 144, "ID1": 47, "PLACE_NAME": "State Capitol Annex", "FULL_ADDRESS": "1051 N 3RD ST", "CITY": "BATON ROUGE", "STATE": "LOUISIANA", "ZIP": 70802, "PHONE": null, "WEBSITE": null }, "geometry": { "type": "Point", "coordinates": [ -91.188746149847546, 30.456911866971708 ] } },
{ "type": "Feature", "properties": { "ID": 145, "ID1": 48, "PLACE_NAME": "Claiborne Building", "FULL_ADDRESS": "1201 N 3RD ST", "CITY": "BATON ROUGE", "STATE": "LOUISIANA", "ZIP": 70802, "PHONE": null, "WEBSITE": null }, "geometry": { "type": "Point", "coordinates": [ -91.188749937166264, 30.459056486227755 ] } }
]
}
